[
{
  "searchString": "IT",
  "rank": 1,
  "searchPageUrl": "https://www.google.com/maps/search/IT/@-20.1705,57.42062478581306,13z?hl=en",
  "isAdvertisement": false,
  "title": "IT Academy Mauritius",
  "price": null,
  "categoryName": "School",
  "address": "Deschartres St, Port Louis, Mauritius",
  "neighborhood": null,
  "street": "Deschartres St",
  "city": "Port Louis",
  "postalCode": null,
  "state": null,
  "countryCode": "MU",
  "website": "https://www.facebook.com/itacademy.mu/",
  "phone": "+230 5803 1000",
  "phoneUnformatted": "+23058031000",
  "claimThisBusiness": false,
  "location": {
    "lat": -20.1652181,
    "lng": 57.4962074
  },
  "totalScore": 4.8,
  "permanentlyClosed": false,
  "temporarilyClosed": false,
  "placeId": "ChIJ6-9v--9TfCERyWI7zaLF-LY",
  "categories": [
    "School"
  ],
  "fid": "0x217c53effb6fefeb:0xb6f8c5a2cd3b62c9",
  "cid": "13184505212145722057",
  "reviewsCount": 50,
  "imagesCount": 2,
  "imageCategories": [],
  "scrapedAt": "2024-08-14T15:50:33.302Z",
  "googleFoodUrl": null,
  "hotelAds": [],
  "openingHours": [
    {
      "day": "Monday",
      "hours": "Closed"
    },
    {
      "day": "Tuesday",
      "hours": "Closed"
    },
    {
      "day": "Wednesday",
      "hours": "Closed"
    },
    {
      "day": "Thursday",
      "hours": "Closed"
    },
    {
      "day": "Friday",
      "hours": "Closed"
    },
    {
      "day": "Saturday",
      "hours": "9:30 AM to 3:30 PM"
    },
    {
      "day": "Sunday",
      "hours": "9:30 AM to 3:30 PM"
    }
  ],
  "peopleAlsoSearch": [],
  "placesTags": [],
  "reviewsTags": [],
  "gasPrices": [],
  "url": "https://www.google.com/maps/search/?api=1&query=IT%20Academy%20Mauritius&query_place_id=ChIJ6-9v--9TfCERyWI7zaLF-LY",
  "imageUrl": "https://lh5.googleusercontent.com/p/AF1QipMbynniofDxbZ8jfsSJQxOm5uypI0M4avC4SAHr=w408-h306-k-no"
},
{
  "searchString": "IT",
  "rank": 1,
  "searchPageUrl": "https://www.google.com/maps/search/IT/@-20.42950592373734,57.28216257162613,13z?hl=en",
  "isAdvertisement": false,
  "title": "Futurist IT Solutions",
  "price": null,
  "categoryName": "Computer store",
  "address": "Avenues des Orchidées, Boundary Road MU, Beau Bassin-Rose Hill 71175, Mauritius",
  "neighborhood": "Trefles",
  "street": "Avenues des Orchidées, Boundary Road MU",
  "city": "Beau Bassin-Rose Hill",
  "postalCode": "71175",
  "state": null,
  "countryCode": "MU",
  "website": "https://www.futuristitsolutions.com/",
  "phone": "+230 5509 4944",
  "phoneUnformatted": "+23055094944",
  "claimThisBusiness": false,
  "location": {
    "lat": -20.2584883,
    "lng": 57.4652618
  },
  "totalScore": 4.9,
  "permanentlyClosed": false,
  "temporarilyClosed": false,
  "placeId": "ChIJBw9YZ3tbfCERT-d5WDWlPyc",
  "categories": [
    "Computer store"
  ],
  "fid": "0x217c5b7b67580f07:0x273fa5355879e74f",
  "cid": "2828160739548194639",
  "reviewsCount": 16,
  "imagesCount": 1,
  "imageCategories": [],
  "scrapedAt": "2024-08-14T15:50:33.259Z",
  "googleFoodUrl": null,
  "hotelAds": [],
  "openingHours": [
    {
      "day": "Monday",
      "hours": "9 AM to 6 PM"
    },
    {
      "day": "Tuesday",
      "hours": "9 AM to 6 PM"
    },
    {
      "day": "Wednesday",
      "hours": "9 AM to 6 PM"
    },
    {
      "day": "Thursday",
      "hours": "9 AM to 6 PM"
    },
    {
      "day": "Friday",
      "hours": "9 AM to 6 PM"
    },
    {
      "day": "Saturday",
      "hours": "9 AM to 12 PM"
    },
    {
      "day": "Sunday",
      "hours": "9 AM to 12 PM"
    }
  ],
  "peopleAlsoSearch": [],
  "placesTags": [],
  "reviewsTags": [],
  "gasPrices": [],
  "url": "https://www.google.com/maps/search/?api=1&query=Futurist%20IT%20Solutions&query_place_id=ChIJBw9YZ3tbfCERT-d5WDWlPyc",
  "imageUrl": "https://lh5.googleusercontent.com/p/AF1QipPB8gzpFahFinlEOou7HBB4_ebJUybkkQkEMXU3=w408-h408-k-no"
},
{
  "searchString": "IT",
  "rank": 2,
  "searchPageUrl": "https://www.google.com/maps/search/IT/@-20.1705,57.42062478581306,13z?hl=en",
  "isAdvertisement": false,
  "title": "IT ARCHITECTS LTD",
  "price": null,
  "categoryName": "Camera store",
  "address": "MU, Robert Stein Street, Port Louis 742CU001, Mauritius",
  "neighborhood": "Camp Chapelon",
  "street": "MU, Robert Stein Street",
  "city": "Port Louis",
  "postalCode": "742CU001",
  "state": null,
  "countryCode": "MU",
  "website": "https://www.facebook.com/itarchitectsltd",
  "phone": "+230 5258 1129",
  "phoneUnformatted": "+23052581129",
  "claimThisBusiness": false,
  "location": {
    "lat": -20.180478,
    "lng": 57.478709
  },
  "totalScore": 4.4,
  "permanentlyClosed": false,
  "temporarilyClosed": false,
  "placeId": "ChIJ4xfmiRZQfCERdBggGBDRwaA",
  "categories": [
    "Camera store",
    "Appliance store",
    "Computer store",
    "Drone shop",
    "Mobile phone repair shop",
    "Photo shop"
  ],
  "fid": "0x217c501689e617e3:0xa0c1d11018201874",
  "cid": "11583769583628064884",
  "reviewsCount": 47,
  "imagesCount": 86,
  "imageCategories": [],
  "scrapedAt": "2024-08-14T15:50:33.302Z",
  "googleFoodUrl": null,
  "hotelAds": [],
  "openingHours": [
    {
      "day": "Monday",
      "hours": "9:30 AM to 5:15 PM"
    },
    {
      "day": "Tuesday",
      "hours": "9:30 AM to 5:15 PM"
    },
    {
      "day": "Wednesday",
      "hours": "9:30 AM to 5:15 PM"
    },
    {
      "day": "Thursday",
      "hours": "9:30 AM to 5:15 PM"
    },
    {
      "day": "Friday",
      "hours": "9:30 AM to 12:30 PM, 2 to 5:15 PM"
    },
    {
      "day": "Saturday",
      "hours": "9:30 AM to 2 PM"
    },
    {
      "day": "Sunday",
      "hours": "Closed"
    }
  ],
  "peopleAlsoSearch": [],
  "placesTags": [],
  "reviewsTags": [],
  "additionalInfo": {
    "Service options": [
      {
        "Delivery": true
      },
      {
        "In-store pickup": true
      },
      {
        "In-store shopping": true
      },
      {
        "Onsite services": true
      },
      {
        "Same-day delivery": false
      }
    ],
    "Accessibility": [
      {
        "Wheelchair accessible entrance": false
      },
      {
        "Wheelchair accessible parking lot": false
      }
    ],
    "Amenities": [
      {
        "Wi-Fi": true
      },
      {
        "Free Wi-Fi": true
      }
    ],
    "Payments": [
      {
        "Checks": true
      },
      {
        "NFC mobile payments": true
      }
    ]
  },
  "gasPrices": [],
  "url": "https://www.google.com/maps/search/?api=1&query=IT%20ARCHITECTS%20LTD&query_place_id=ChIJ4xfmiRZQfCERdBggGBDRwaA",
  "imageUrl": "https://lh5.googleusercontent.com/p/AF1QipNfgsc6PE0efrN5JRyxFQqgS0RofPaZRqHExVrQ=w426-h240-k-no"
},
{
  "searchString": "IT",
  "rank": 3,
  "searchPageUrl": "https://www.google.com/maps/search/IT/@-20.1705,57.42062478581306,13z?hl=en",
  "isAdvertisement": false,
  "title": "Dexx IT Computer System Co Ltd",
  "price": null,
  "categoryName": "Computer repair service",
  "address": "Lot 858, Morc Beerjeraz, MU, Albion 91004, Mauritius",
  "neighborhood": null,
  "street": "Lot 858, Morc Beerjeraz, MU",
  "city": "Albion",
  "postalCode": "91004",
  "state": null,
  "countryCode": "MU",
  "phone": "+230 5735 9337",
  "phoneUnformatted": "+23057359337",
  "claimThisBusiness": false,
  "location": {
    "lat": -20.1995148,
    "lng": 57.4141986
  },
  "totalScore": 5,
  "permanentlyClosed": false,
  "temporarilyClosed": false,
  "placeId": "ChIJp05G1pxFfCER94Xih82Ixr8",
  "categories": [
    "Computer repair service"
  ],
  "fid": "0x217c459cd6464ea7:0xbfc688cd87e285f7",
  "cid": "13818882922962388471",
  "reviewsCount": 1,
  "imagesCount": 3,
  "imageCategories": [],
  "scrapedAt": "2024-08-14T15:50:33.302Z",
  "googleFoodUrl": null,
  "hotelAds": [],
  "openingHours": [
    {
      "day": "Monday",
      "hours": "Open 24 hours"
    },
    {
      "day": "Tuesday",
      "hours": "Open 24 hours"
    },
    {
      "day": "Wednesday",
      "hours": "Open 24 hours"
    },
    {
      "day": "Thursday",
      "hours": "Open 24 hours"
    },
    {
      "day": "Friday",
      "hours": "Open 24 hours"
    },
    {
      "day": "Saturday",
      "hours": "Open 24 hours"
    },
    {
      "day": "Sunday",
      "hours": "Closed"
    }
  ],
  "peopleAlsoSearch": [],
  "placesTags": [],
  "reviewsTags": [],
  "additionalInfo": {
    "Payments": [
      {
        "Credit cards": true
      },
      {
        "Debit cards": true
      },
      {
        "NFC mobile payments": true
      },
      {
        "Credit cards": true
      }
    ]
  },
  "gasPrices": [],
  "url": "https://www.google.com/maps/search/?api=1&query=Dexx%20IT%20Computer%20System%20Co%20Ltd&query_place_id=ChIJp05G1pxFfCER94Xih82Ixr8",
  "imageUrl": "https://lh5.googleusercontent.com/p/AF1QipMm4Pbp1xtq-cPeug-IEhNzndlHv3VIy9BqTMPA=w408-h272-k-no"
},
{
  "searchString": "IT",
  "rank": 4,
  "searchPageUrl": "https://www.google.com/maps/search/IT/@-20.1705,57.42062478581306,13z?hl=en",
  "isAdvertisement": false,
  "title": "Taqneeya IT Solutions",
  "price": null,
  "categoryName": "Computer consultant",
  "address": "5th Floor, Chausse Street , 4 Medine Mews, Port Louis, Mauritius",
  "neighborhood": null,
  "street": "5th Floor, Chausse Street , 4 Medine Mews",
  "city": "Port Louis",
  "postalCode": null,
  "state": null,
  "countryCode": "MU",
  "website": "http://www.taqneeya.com/",
  "phone": "+230 5496 9697",
  "phoneUnformatted": "+23054969697",
  "claimThisBusiness": false,
  "location": {
    "lat": -20.1636209,
    "lng": 57.5014035
  },
  "totalScore": 5,
  "permanentlyClosed": false,
  "temporarilyClosed": false,
  "placeId": "ChIJ_etNenZRfCERWU937Jn8CZY",
  "categories": [
    "Computer consultant"
  ],
  "fid": "0x217c51767a4debfd:0x9609fc99ec774f59",
  "cid": "10811450118507024217",
  "reviewsCount": 1,
  "imagesCount": null,
  "imageCategories": [],
  "scrapedAt": "2024-08-14T15:50:33.302Z",
  "googleFoodUrl": null,
  "hotelAds": [],
  "openingHours": [
    {
      "day": "Monday",
      "hours": "8 AM to 6 PM"
    },
    {
      "day": "Tuesday",
      "hours": "8 AM to 6 PM"
    },
    {
      "day": "Wednesday",
      "hours": "8 AM to 6 PM"
    },
    {
      "day": "Thursday",
      "hours": "8 AM to 6 PM"
    },
    {
      "day": "Friday",
      "hours": "8 AM to 6 PM"
    },
    {
      "day": "Saturday",
      "hours": "8 AM to 2 PM"
    },
    {
      "day": "Sunday",
      "hours": "Closed"
    }
  ],
  "peopleAlsoSearch": [],
  "placesTags": [],
  "reviewsTags": [],
  "additionalInfo": {
    "Service options": [
      {
        "Online appointments": true
      },
      {
        "Onsite services": true
      }
    ]
  },
  "gasPrices": [],
  "url": "https://www.google.com/maps/search/?api=1&query=Taqneeya%20IT%20Solutions&query_place_id=ChIJ_etNenZRfCERWU937Jn8CZY"
},
{
  "searchString": "IT",
  "rank": 2,
  "searchPageUrl": "https://www.google.com/maps/search/IT/@-20.30000296186867,57.97447364256078,13z?hl=en",
  "isAdvertisement": false,
  "title": "DJ IT Solutions",
  "price": null,
  "categoryName": "Website designer",
  "address": "Ramlochun Ln, Laventure 41001, Mauritius",
  "neighborhood": null,
  "street": "Ramlochun Ln",
  "city": "Laventure",
  "postalCode": "41001",
  "state": null,
  "countryCode": "MU",
  "phone": "+91 78785 23400",
  "phoneUnformatted": "+917878523400",
  "claimThisBusiness": false,
  "location": {
    "lat": -20.1492327,
    "lng": 57.6835021
  },
  "permanentlyClosed": false,
  "temporarilyClosed": false,
  "placeId": "ChIJn6MK0y7_fCER_pq1Pmh4jjg",
  "categories": [
    "Website designer"
  ],
  "fid": "0x217cff2ed30aa39f:0x388e78683eb59afe",
  "cid": "4075327101940898558",
  "reviewsCount": 0,
  "imagesCount": 2,
  "imageCategories": [],
  "scrapedAt": "2024-08-14T15:50:33.396Z",
  "googleFoodUrl": null,
  "hotelAds": [],
  "openingHours": [],
  "peopleAlsoSearch": [],
  "placesTags": [],
  "reviewsTags": [],
  "gasPrices": [],
  "url": "https://www.google.com/maps/search/?api=1&query=DJ%20IT%20Solutions&query_place_id=ChIJn6MK0y7_fCER_pq1Pmh4jjg",
  "imageUrl": "https://lh5.googleusercontent.com/p/AF1QipNUjROVvas8nX6eZ25y42ant28iExqXaPe_uH9b=w408-h545-k-no"
},
{
  "searchString": "IT",
  "rank": 1,
  "searchPageUrl": "https://www.google.com/maps/search/IT/@-20.30000296186867,57.55908699999999,13z?hl=en",
  "isAdvertisement": false,
  "title": "IT SERV",
  "price": null,
  "categoryName": "Computer service",
  "address": "Julien de jardin, Ramon St, Curepipe, Mauritius",
  "neighborhood": null,
  "street": "Julien de jardin, Ramon St",
  "city": "Curepipe",
  "postalCode": null,
  "state": null,
  "countryCode": "MU",
  "phone": "+230 5854 7855",
  "phoneUnformatted": "+23058547855",
  "claimThisBusiness": false,
  "location": {
    "lat": -20.3098071,
    "lng": 57.5247317
  },
  "totalScore": 5,
  "permanentlyClosed": false,
  "temporarilyClosed": false,
  "placeId": "ChIJo42PMLFdfCERWud7VOpnTKw",
  "categories": [
    "Computer service"
  ],
  "fid": "0x217c5db1308f8da3:0xac4c67ea547be75a",
  "cid": "12415412528891029338",
  "reviewsCount": 2,
  "imagesCount": 1,
  "imageCategories": [],
  "scrapedAt": "2024-08-14T15:50:33.411Z",
  "googleFoodUrl": null,
  "hotelAds": [],
  "openingHours": [
    {
      "day": "Monday",
      "hours": "9 AM to 6 PM"
    },
    {
      "day": "Tuesday",
      "hours": "9 AM to 6 PM"
    },
    {
      "day": "Wednesday",
      "hours": "9 AM to 6 PM"
    },
    {
      "day": "Thursday",
      "hours": "9 AM to 6 PM"
    },
    {
      "day": "Friday",
      "hours": "9 AM to 6 PM"
    },
    {
      "day": "Saturday",
      "hours": "9 AM to 6 PM"
    },
    {
      "day": "Sunday",
      "hours": "Open 24 hours"
    }
  ],
  "peopleAlsoSearch": [],
  "placesTags": [],
  "reviewsTags": [],
  "additionalInfo": {
    "Service options": [
      {
        "Online appointments": true
      }
    ],
    "Planning": [
      {
        "Appointment required": true
      }
    ]
  },
  "gasPrices": [],
  "url": "https://www.google.com/maps/search/?api=1&query=IT%20SERV&query_place_id=ChIJo42PMLFdfCERWud7VOpnTKw",
  "imageUrl": "https://lh5.googleusercontent.com/p/AF1QipP7PG1Uny7SBEchtUOT7vLnUwzoamg5lZnUop1_=w427-h240-k-no"
},
{
  "searchString": "IT",
  "rank": 5,
  "searchPageUrl": "https://www.google.com/maps/search/IT/@-20.1705,57.42062478581306,13z?hl=en",
  "isAdvertisement": false,
  "title": "2M Tech Services Ltd",
  "price": null,
  "categoryName": "Computer support and services",
  "address": "Barkly Wharf Rue Old Pavillon, Le Caudan, Port Louis, Mauritius",
  "neighborhood": "Les Salines",
  "street": "Barkly Wharf Rue Old Pavillon, Le Caudan",
  "city": "Port Louis",
  "postalCode": null,
  "state": null,
  "countryCode": "MU",
  "phone": "+230 212 2222",
  "phoneUnformatted": "+2302122222",
  "claimThisBusiness": false,
  "location": {
    "lat": -20.1612031,
    "lng": 57.4984127
  },
  "totalScore": 4.8,
  "permanentlyClosed": false,
  "temporarilyClosed": false,
  "placeId": "ChIJT-zELVBQfCERwJiTXdp6BgI",
  "categories": [
    "Computer support and services"
  ],
  "fid": "0x217c50502dc4ec4f:0x2067ada5d9398c0",
  "cid": "145939116227532992",
  "reviewsCount": 29,
  "imagesCount": 4,
  "imageCategories": [],
  "scrapedAt": "2024-08-14T15:50:33.302Z",
  "googleFoodUrl": null,
  "hotelAds": [],
  "openingHours": [
    {
      "day": "Monday",
      "hours": "8 AM to 8 PM"
    },
    {
      "day": "Tuesday",
      "hours": "8 AM to 8 PM"
    },
    {
      "day": "Wednesday",
      "hours": "8 AM to 8 PM"
    },
    {
      "day": "Thursday",
      "hours": "8 AM to 8 PM"
    },
    {
      "day": "Friday",
      "hours": "8 AM to 8 PM"
    },
    {
      "day": "Saturday",
      "hours": "8 AM to 5 PM"
    },
    {
      "day": "Sunday",
      "hours": "8 AM to 5 PM"
    }
  ],
  "peopleAlsoSearch": [],
  "placesTags": [],
  "reviewsTags": [],
  "additionalInfo": {
    "Accessibility": [
      {
        "Wheelchair accessible entrance": true
      },
      {
        "Wheelchair accessible parking lot": true
      }
    ]
  },
  "gasPrices": [],
  "url": "https://www.google.com/maps/search/?api=1&query=2M%20Tech%20Services%20Ltd&query_place_id=ChIJT-zELVBQfCERwJiTXdp6BgI",
  "imageUrl": "https://lh5.googleusercontent.com/p/AF1QipPdjBv6pnRiTEUOO_OwR10SxZtziMqMgd2DbbNg=w426-h240-k-no"
},
{
  "searchString": "IT",
  "rank": 1,
  "searchPageUrl": "https://www.google.com/maps/search/IT/@-20.04099703813133,57.55908699999999,13z?hl=en",
  "isAdvertisement": false,
  "title": "Abakoz IT Services Ltd",
  "price": null,
  "categoryName": "Software company",
  "address": "Quartier des Serres Domaine Labourdonnais Mapou MU, 31804, Mauritius",
  "neighborhood": "Labourdonnais",
  "street": "Quartier des Serres Domaine Labourdonnais Mapou MU",
  "city": "Mapou",
  "postalCode": "31804",
  "state": null,
  "countryCode": "MU",
  "website": "https://www.abakoz.com/",
  "phone": "+230 267 1124",
  "phoneUnformatted": "+2302671124",
  "claimThisBusiness": false,
  "location": {
    "lat": -20.070418,
    "lng": 57.6158697
  },
  "totalScore": 4.9,
  "permanentlyClosed": false,
  "temporarilyClosed": false,
  "placeId": "ChIJJWy8LwFVfCER1biadrkkF4k",
  "categories": [
    "Software company"
  ],
  "fid": "0x217c55012fbc6c25:0x891724b9769ab8d5",
  "cid": "9878404686637873365",
  "reviewsCount": 7,
  "imagesCount": 2,
  "imageCategories": [],
  "scrapedAt": "2024-08-14T15:50:33.419Z",
  "googleFoodUrl": null,
  "hotelAds": [],
  "openingHours": [
    {
      "day": "Monday",
      "hours": "8:30 AM to 9 PM"
    },
    {
      "day": "Tuesday",
      "hours": "8:30 AM to 9 PM"
    },
    {
      "day": "Wednesday",
      "hours": "8:30 AM to 9 PM"
    },
    {
      "day": "Thursday",
      "hours": "8:30 AM to 9 PM"
    },
    {
      "day": "Friday",
      "hours": "8:30 AM to 8 PM"
    },
    {
      "day": "Saturday",
      "hours": "Closed"
    },
    {
      "day": "Sunday",
      "hours": "Closed"
    }
  ],
  "peopleAlsoSearch": [],
  "placesTags": [],
  "reviewsTags": [],
  "gasPrices": [],
  "url": "https://www.google.com/maps/search/?api=1&query=Abakoz%20IT%20Services%20Ltd&query_place_id=ChIJJWy8LwFVfCER1biadrkkF4k",
  "imageUrl": "https://lh5.googleusercontent.com/p/AF1QipNYgW5nCjOGWrKGGrUXpd2KblZhJEtOv4K6u7vW=w426-h240-k-no"
},
{
  "searchString": "IT",
  "rank": 2,
  "searchPageUrl": "https://www.google.com/maps/search/IT/@-20.30000296186867,57.55908699999999,13z?hl=en",
  "isAdvertisement": false,
  "title": "Avi IT Tech",
  "price": null,
  "categoryName": "Computer support and services",
  "address": "MU, Appanah Lane, 80204, Mauritius",
  "neighborhood": "Upper Dagotiere",
  "street": "MU, Appanah Lane",
  "city": "Dagotiere",
  "postalCode": "80204",
  "state": null,
  "countryCode": "MU",
  "website": "https://www.facebook.com/AvinashGamer/",
  "phone": "+230 5713 2663",
  "phoneUnformatted": "+23057132663",
  "claimThisBusiness": false,
  "location": {
    "lat": -20.2434873,
    "lng": 57.5666219
  },
  "totalScore": 4.8,
  "permanentlyClosed": false,
  "temporarilyClosed": false,
  "placeId": "ChIJse4illhZfCERvAOMB5OhlAg",
  "categories": [
    "Computer support and services",
    "Computer repair service"
  ],
  "fid": "0x217c59589622eeb1:0x894a193078c03bc",
  "cid": "618296701715481532",
  "reviewsCount": 10,
  "imagesCount": 4,
  "imageCategories": [],
  "scrapedAt": "2024-08-14T15:50:33.411Z",
  "googleFoodUrl": null,
  "hotelAds": [],
  "openingHours": [
    {
      "day": "Monday",
      "hours": "9 AM to 4 PM"
    },
    {
      "day": "Tuesday",
      "hours": "9 AM to 4 PM"
    },
    {
      "day": "Wednesday",
      "hours": "9 AM to 4 PM"
    },
    {
      "day": "Thursday",
      "hours": "9 AM to 4 PM"
    },
    {
      "day": "Friday",
      "hours": "9 AM to 4 PM"
    },
    {
      "day": "Saturday",
      "hours": "9 AM to 1 PM"
    },
    {
      "day": "Sunday",
      "hours": "Closed"
    }
  ],
  "peopleAlsoSearch": [],
  "placesTags": [],
  "reviewsTags": [],
  "additionalInfo": {
    "Service options": [
      {
        "Online appointments": true
      },
      {
        "Onsite services": true
      }
    ]
  },
  "gasPrices": [],
  "url": "https://www.google.com/maps/search/?api=1&query=Avi%20IT%20Tech&query_place_id=ChIJse4illhZfCERvAOMB5OhlAg",
  "imageUrl": "https://lh5.googleusercontent.com/p/AF1QipMv1GN8LTNPWgR7yZeOdFQJ1E1_Wjz1TVfPKoL6=w427-h240-k-no"
},
{
  "searchString": "IT",
  "rank": 6,
  "searchPageUrl": "https://www.google.com/maps/search/IT/@-20.30000296186867,57.97447364256078,13z?hl=en",
  "isAdvertisement": false,
  "title": "Just Detail It",
  "price": null,
  "categoryName": "Car detailing service",
  "address": "Parboteeah Rd, Brisee Verdiere, Mauritius",
  "neighborhood": null,
  "street": "Parboteeah Rd",
  "city": "Brisee Verdiere",
  "postalCode": null,
  "state": null,
  "countryCode": "MU",
  "phone": "+230 5928 8404",
  "phoneUnformatted": "+23059288404",
  "claimThisBusiness": false,
  "location": {
    "lat": -20.1700518,
    "lng": 57.6597487
  },
  "totalScore": 5,
  "permanentlyClosed": false,
  "temporarilyClosed": false,
  "placeId": "ChIJFVXr7ub5fCERB5TkHI5KR7Y",
  "categories": [
    "Car detailing service"
  ],
  "fid": "0x217cf9e6eeeb5515:0xb6474a8e1ce49407",
  "cid": "13134548812479894535",
  "reviewsCount": 1,
  "imagesCount": null,
  "imageCategories": [],
  "scrapedAt": "2024-08-14T15:50:33.396Z",
  "googleFoodUrl": null,
  "hotelAds": [],
  "openingHours": [],
  "peopleAlsoSearch": [],
  "placesTags": [],
  "reviewsTags": [],
  "gasPrices": [],
  "url": "https://www.google.com/maps/search/?api=1&query=Just%20Detail%20It&query_place_id=ChIJFVXr7ub5fCERB5TkHI5KR7Y"
},
{
  "searchString": "IT",
  "rank": 6,
  "searchPageUrl": "https://www.google.com/maps/search/IT/@-20.1705,57.42062478581306,13z?hl=en",
  "isAdvertisement": false,
  "title": "IT World Ltd",
  "price": null,
  "categoryName": "Computer support and services",
  "address": "62, Avenue des Fushias Morcellement Concorde MU, Tombeau Bay 21712, Mauritius",
  "neighborhood": null,
  "street": "62, Avenue des Fushias Morcellement Concorde MU",
  "city": "Tombeau Bay",
  "postalCode": "21712",
  "state": null,
  "countryCode": "MU",
  "phone": "+230 5257 2290",
  "phoneUnformatted": "+23052572290",
  "claimThisBusiness": false,
  "location": {
    "lat": -20.1148471,
    "lng": 57.5075843
  },
  "permanentlyClosed": false,
  "temporarilyClosed": false,
  "placeId": "ChIJCfgKM9NRfCERtLpFnkQfon4",
  "categories": [
    "Computer support and services"
  ],
  "fid": "0x217c51d3330af809:0x7ea21f449e45bab4",
  "cid": "9124890174579653300",
  "reviewsCount": 0,
  "imagesCount": null,
  "imageCategories": [],
  "scrapedAt": "2024-08-14T15:50:33.302Z",
  "googleFoodUrl": null,
  "hotelAds": [],
  "openingHours": [
    {
      "day": "Monday",
      "hours": "8 AM to 5 PM"
    },
    {
      "day": "Tuesday",
      "hours": "8 AM to 5 PM"
    },
    {
      "day": "Wednesday",
      "hours": "8 AM to 5 PM"
    },
    {
      "day": "Thursday",
      "hours": "8 AM to 5 PM"
    },
    {
      "day": "Friday",
      "hours": "8 AM to 5 PM"
    },
    {
      "day": "Saturday",
      "hours": "Closed"
    },
    {
      "day": "Sunday",
      "hours": "Closed"
    }
  ],
  "peopleAlsoSearch": [],
  "placesTags": [],
  "reviewsTags": [],
  "gasPrices": [],
  "url": "https://www.google.com/maps/search/?api=1&query=IT%20World%20Ltd&query_place_id=ChIJCfgKM9NRfCERtLpFnkQfon4"
},
{
  "searchString": "IT",
  "rank": 4,
  "searchPageUrl": "https://www.google.com/maps/search/IT/@-20.42950592373734,57.28216257162613,13z?hl=en",
  "isAdvertisement": false,
  "title": "MONITOR IT LTD",
  "price": null,
  "categoryName": "Corporate office",
  "address": "53, Loreto Convent Avenue, Vacoas-Phoenix, Mauritius",
  "neighborhood": "Clairfonds",
  "street": "53, Loreto Convent Avenue",
  "city": "Vacoas-Phoenix",
  "postalCode": null,
  "state": null,
  "countryCode": "MU",
  "website": "http://www.monitorit.io/",
  "claimThisBusiness": true,
  "location": {
    "lat": -20.2966325,
    "lng": 57.4915563
  },
  "permanentlyClosed": false,
  "temporarilyClosed": false,
  "placeId": "ChIJm8Q57a9dfCERAVqGgE-_SMQ",
  "categories": [
    "Corporate office"
  ],
  "fid": "0x217c5dafed39c49b:0xc448bf4f80865a01",
  "cid": "14143764977936652801",
  "reviewsCount": 0,
  "imagesCount": null,
  "imageCategories": [],
  "scrapedAt": "2024-08-14T15:50:33.259Z",
  "googleFoodUrl": null,
  "hotelAds": [],
  "openingHours": [],
  "peopleAlsoSearch": [],
  "placesTags": [],
  "reviewsTags": [],
  "gasPrices": [],
  "url": "https://www.google.com/maps/search/?api=1&query=MONITOR%20IT%20LTD&query_place_id=ChIJm8Q57a9dfCERAVqGgE-_SMQ"
},
{
  "searchString": "IT",
  "rank": 3,
  "searchPageUrl": "https://www.google.com/maps/search/IT/@-20.30000296186867,57.55908699999999,13z?hl=en",
  "isAdvertisement": false,
  "title": "Pro Cloud IT Services",
  "price": null,
  "categoryName": "Computer support and services",
  "address": "MU, Holyrood Rd I, Vacoas-Phoenix 73221, Mauritius",
  "neighborhood": "Hollyrood",
  "street": "MU, Holyrood Rd I",
  "city": "Vacoas-Phoenix",
  "postalCode": "73221",
  "state": null,
  "countryCode": "MU",
  "phone": "+230 5255 8884",
  "phoneUnformatted": "+23052558884",
  "claimThisBusiness": false,
  "location": {
    "lat": -20.3137507,
    "lng": 57.4814595
  },
  "totalScore": 5,
  "permanentlyClosed": false,
  "temporarilyClosed": false,
  "placeId": "ChIJ9dIfgBRdfCER9sEB4ZC6oCc",
  "categories": [
    "Computer support and services",
    "Information services"
  ],
  "fid": "0x217c5d14801fd2f5:0x27a0ba90e101c1f6",
  "cid": "2855487295165940214",
  "reviewsCount": 2,
  "imagesCount": 3,
  "imageCategories": [],
  "scrapedAt": "2024-08-14T15:50:33.411Z",
  "googleFoodUrl": null,
  "hotelAds": [],
  "openingHours": [
    {
      "day": "Monday",
      "hours": "9 AM to 5 PM"
    },
    {
      "day": "Tuesday",
      "hours": "9 AM to 5 PM"
    },
    {
      "day": "Wednesday",
      "hours": "9 AM to 5 PM"
    },
    {
      "day": "Thursday",
      "hours": "9 AM to 5 PM"
    },
    {
      "day": "Friday",
      "hours": "9 AM to 5 PM"
    },
    {
      "day": "Saturday",
      "hours": "Closed"
    },
    {
      "day": "Sunday",
      "hours": "Closed"
    }
  ],
  "peopleAlsoSearch": [],
  "placesTags": [],
  "reviewsTags": [],
  "additionalInfo": {
    "Service options": [
      {
        "Online appointments": true
      },
      {
        "Onsite services": true
      }
    ]
  },
  "gasPrices": [],
  "url": "https://www.google.com/maps/search/?api=1&query=Pro%20Cloud%20IT%20Services&query_place_id=ChIJ9dIfgBRdfCER9sEB4ZC6oCc",
  "imageUrl": "https://lh5.googleusercontent.com/p/AF1QipPj9uec9CIZPsPP2Xqpq8gOP7-SjQ3Jw0Hvbh4V=w458-h240-k-no"
},
{
  "searchString": "IT",
  "rank": 2,
  "searchPageUrl": "https://www.google.com/maps/search/IT/@-20.04099703813133,57.55908699999999,13z?hl=en",
  "isAdvertisement": false,
  "title": "IT Wizards Ltd",
  "price": null,
  "categoryName": "Computer support and services",
  "address": "No 143 Mt Piton, Piton Pamplemousses MU, 30807, Mauritius",
  "neighborhood": null,
  "street": "No 143 Mt Piton, Piton Pamplemousses MU",
  "city": null,
  "postalCode": "30807",
  "state": null,
  "countryCode": "MU",
  "website": "http://it.wizards.mu/",
  "phone": "+230 5253 2422",
  "phoneUnformatted": "+23052532422",
  "claimThisBusiness": false,
  "location": {
    "lat": -20.1092572,
    "lng": 57.6222784
  },
  "permanentlyClosed": false,
  "temporarilyClosed": false,
  "placeId": "ChIJZ-rt65FVfCERMwGaw6hIiW0",
  "categories": [
    "Computer support and services"
  ],
  "fid": "0x217c5591ebedea67:0x6d8948a8c39a0133",
  "cid": "7892919711616860467",
  "reviewsCount": 0,
  "imagesCount": 1,
  "imageCategories": [],
  "scrapedAt": "2024-08-14T15:50:33.419Z",
  "googleFoodUrl": null,
  "hotelAds": [],
  "openingHours": [
    {
      "day": "Monday",
      "hours": "8 AM to 4 PM"
    },
    {
      "day": "Tuesday",
      "hours": "8 AM to 4 PM"
    },
    {
      "day": "Wednesday",
      "hours": "8 AM to 4 PM"
    },
    {
      "day": "Thursday",
      "hours": "8 AM to 4 PM"
    },
    {
      "day": "Friday",
      "hours": "8 AM to 4 PM"
    },
    {
      "day": "Saturday",
      "hours": "Closed"
    },
    {
      "day": "Sunday",
      "hours": "Closed"
    }
  ],
  "peopleAlsoSearch": [],
  "placesTags": [],
  "reviewsTags": [],
  "gasPrices": [],
  "url": "https://www.google.com/maps/search/?api=1&query=IT%20Wizards%20Ltd&query_place_id=ChIJZ-rt65FVfCERMwGaw6hIiW0",
  "imageUrl": "https://lh5.googleusercontent.com/p/AF1QipMJc0yYNMxI76NE-UgrwcQGdVxbBJiUIELjgYST=w440-h240-k-no"
},
{
  "searchString": "IT",
  "rank": 4,
  "searchPageUrl": "https://www.google.com/maps/search/IT/@-20.30000296186867,57.55908699999999,13z?hl=en",
  "isAdvertisement": false,
  "title": "IT Solvz",
  "price": null,
  "categoryName": "Computer repair service",
  "address": "QF5M+CWG, Reduit Road, Quatre Bornes, Mauritius",
  "neighborhood": "Réduit",
  "street": "QF5M+CWG, Reduit Road",
  "city": "Quatre Bornes",
  "postalCode": null,
  "state": null,
  "countryCode": "MU",
  "website": "http://www.itsolvz.mu/",
  "phone": "+230 465 8080",
  "phoneUnformatted": "+2304658080",
  "claimThisBusiness": true,
  "location": {
    "lat": -20.2414375,
    "lng": 57.4848125
  },
  "totalScore": 4.1,
  "permanentlyClosed": false,
  "temporarilyClosed": false,
  "placeId": "ChIJo_Ld799afCER3dBnB8V5NMI",
  "categories": [
    "Computer repair service",
    "Computers"
  ],
  "fid": "0x217c5adfefddf2a3:0xc23479c50767d0dd",
  "cid": "13993943829286736093",
  "reviewsCount": 50,
  "imagesCount": 4,
  "imageCategories": [],
  "scrapedAt": "2024-08-14T15:50:33.411Z",
  "googleFoodUrl": null,
  "hotelAds": [],
  "openingHours": [
    {
      "day": "Monday",
      "hours": "8:30 AM to 5 PM"
    },
    {
      "day": "Tuesday",
      "hours": "8:30 AM to 5 PM"
    },
    {
      "day": "Wednesday",
      "hours": "8:30 AM to 5 PM"
    },
    {
      "day": "Thursday",
      "hours": "8:30 AM to 5 PM"
    },
    {
      "day": "Friday",
      "hours": "8:30 AM to 5 PM"
    },
    {
      "day": "Saturday",
      "hours": "Closed"
    },
    {
      "day": "Sunday",
      "hours": "Closed"
    }
  ],
  "peopleAlsoSearch": [],
  "placesTags": [],
  "reviewsTags": [],
  "additionalInfo": {
    "Accessibility": [
      {
        "Wheelchair accessible entrance": true
      },
      {
        "Wheelchair accessible parking lot": true
      }
    ]
  },
  "gasPrices": [],
  "url": "https://www.google.com/maps/search/?api=1&query=IT%20Solvz&query_place_id=ChIJo_Ld799afCER3dBnB8V5NMI",
  "imageUrl": "https://lh5.googleusercontent.com/p/AF1QipNQDNdF3a-TkTrEpDQCc7N_fKxNz3r8Hco8swb6=w426-h240-k-no"
},
{
  "searchString": "IT",
  "rank": 7,
  "searchPageUrl": "https://www.google.com/maps/search/IT/@-20.1705,57.42062478581306,13z?hl=en",
  "isAdvertisement": false,
  "title": "Channel IT Ltd",
  "price": null,
  "categoryName": "Computer support and services",
  "address": "20 Vishnu Kchetra St, Port Louis, Mauritius",
  "neighborhood": null,
  "street": "20 Vishnu Kchetra St",
  "city": "Port Louis",
  "postalCode": null,
  "state": null,
  "countryCode": "MU",
  "phone": "+230 211 9190",
  "phoneUnformatted": "+2302119190",
  "claimThisBusiness": true,
  "location": {
    "lat": -20.1694337,
    "lng": 57.5067923
  },
  "totalScore": 4.3,
  "permanentlyClosed": false,
  "temporarilyClosed": false,
  "placeId": "ChIJb1kRYUBRfCERYw5XdqGWwqk",
  "categories": [
    "Computer support and services"
  ],
  "fid": "0x217c51406111596f:0xa9c296a176570e63",
  "cid": "12232505158111006307",
  "reviewsCount": 22,
  "imagesCount": 1,
  "imageCategories": [],
  "scrapedAt": "2024-08-14T15:50:33.302Z",
  "googleFoodUrl": null,
  "hotelAds": [],
  "openingHours": [
    {
      "day": "Monday",
      "hours": "8:30 AM to 5 PM"
    },
    {
      "day": "Tuesday",
      "hours": "8:30 AM to 5 PM"
    },
    {
      "day": "Wednesday",
      "hours": "8:30 AM to 5 PM"
    },
    {
      "day": "Thursday",
      "hours": "8:30 AM to 5 PM"
    },
    {
      "day": "Friday",
      "hours": "8:30 AM to 5 PM"
    },
    {
      "day": "Saturday",
      "hours": "Closed"
    },
    {
      "day": "Sunday",
      "hours": "Closed"
    }
  ],
  "peopleAlsoSearch": [],
  "placesTags": [],
  "reviewsTags": [],
  "additionalInfo": {
    "Accessibility": [
      {
        "Wheelchair accessible entrance": false
      }
    ]
  },
  "gasPrices": [],
  "url": "https://www.google.com/maps/search/?api=1&query=Channel%20IT%20Ltd&query_place_id=ChIJb1kRYUBRfCERYw5XdqGWwqk",
  "imageUrl": "https://lh5.googleusercontent.com/p/AF1QipNo00JWR9ZzhWLXJDGwgM79s9OXD0xoP3yJ733J=w408-h306-k-no"
},
{
  "searchString": "IT",
  "rank": 3,
  "searchPageUrl": "https://www.google.com/maps/search/IT/@-20.04099703813133,57.55908699999999,13z?hl=en",
  "isAdvertisement": false,
  "title": "IT Evolution Ltd",
  "price": null,
  "categoryName": "Computer support and services",
  "address": "Chemin Du Banian, Morc. Swan, Pereybere, 30532 MU, Grand Baie 30352, Mauritius",
  "neighborhood": "Pereybere",
  "street": "Chemin Du Banian, Morc. Swan, Pereybere, 30532 MU",
  "city": "Grand Baie",
  "postalCode": "30352",
  "state": null,
  "countryCode": "MU",
  "website": "https://myitevolution.com/",
  "phone": "+230 5472 3437",
  "phoneUnformatted": "+23054723437",
  "claimThisBusiness": false,
  "location": {
    "lat": -20.0036446,
    "lng": 57.5899216
  },
  "permanentlyClosed": false,
  "temporarilyClosed": false,
  "placeId": "ChIJqY4O_AWrfSER0uF7ooTnRx0",
  "categories": [
    "Computer support and services"
  ],
  "fid": "0x217dab05fc0e8ea9:0x1d47e784a27be1d2",
  "cid": "2109909507294093778",
  "reviewsCount": 0,
  "imagesCount": null,
  "imageCategories": [],
  "scrapedAt": "2024-08-14T15:50:33.419Z",
  "googleFoodUrl": null,
  "hotelAds": [],
  "openingHours": [
    {
      "day": "Monday",
      "hours": "9 AM to 5 PM"
    },
    {
      "day": "Tuesday",
      "hours": "9 AM to 5 PM"
    },
    {
      "day": "Wednesday",
      "hours": "9 AM to 5 PM"
    },
    {
      "day": "Thursday",
      "hours": "9 AM to 5 PM"
    },
    {
      "day": "Friday",
      "hours": "9 AM to 4 PM"
    },
    {
      "day": "Saturday",
      "hours": "Closed"
    },
    {
      "day": "Sunday",
      "hours": "Closed"
    }
  ],
  "peopleAlsoSearch": [],
  "placesTags": [],
  "reviewsTags": [],
  "gasPrices": [],
  "url": "https://www.google.com/maps/search/?api=1&query=IT%20Evolution%20Ltd&query_place_id=ChIJqY4O_AWrfSER0uF7ooTnRx0"
},
{
  "searchString": "IT",
  "rank": 5,
  "searchPageUrl": "https://www.google.com/maps/search/IT/@-20.30000296186867,57.55908699999999,13z?hl=en",
  "isAdvertisement": false,
  "title": "Binary IT Solutions",
  "price": null,
  "categoryName": "Computer store",
  "address": "QF3G+R8R, Duncan Taylor St, Beau Bassin-Rose Hill, Mauritius",
  "neighborhood": "Rose Hill",
  "street": "QF3G+R8R, Duncan Taylor St",
  "city": "Beau Bassin-Rose Hill",
  "postalCode": null,
  "state": null,
  "countryCode": "MU",
  "claimThisBusiness": true,
  "location": {
    "lat": -20.2453894,
    "lng": 57.4757702
  },
  "permanentlyClosed": false,
  "temporarilyClosed": false,
  "placeId": "ChIJhZP4RwFbfCERTFkvpRW0sZ4",
  "categories": [
    "Computer store"
  ],
  "fid": "0x217c5b0147f89385:0x9eb1b415a52f594c",
  "cid": "11435118933929056588",
  "reviewsCount": 0,
  "imagesCount": null,
  "imageCategories": [],
  "scrapedAt": "2024-08-14T15:50:33.411Z",
  "googleFoodUrl": null,
  "hotelAds": [],
  "openingHours": [],
  "peopleAlsoSearch": [],
  "placesTags": [],
  "reviewsTags": [],
  "gasPrices": [],
  "url": "https://www.google.com/maps/search/?api=1&query=Binary%20IT%20Solutions&query_place_id=ChIJhZP4RwFbfCERTFkvpRW0sZ4"
}]